[	{
		"name":"Gas Petrolimex JSC",
		"lat":10.8746739,
		"lon":106.5792704,
		"image":"https://maps.gstatic.com/tactile/pane/default_geocode-1x.png",
	 	"address":"40/3, Le Van Khuong Street, Quarter 3, Tan Thoi An Ward, District 12, Hiệp Thành, Quận 12, Hồ Chí Minh, Vietnam",
		"phone": "+84 8 3996 1386"
	},
	{
		"name":"PVOIL CHXD 56",
		"lat":10.7616941,
		"lon":106.6681309,
		"image":"https://lh3.googleusercontent.com/-MbLDKMXHDwU/WLPGSl6mA_I/AAAAAAAAACA/x5cGeDdbFl49fMlN_MrJNQTB74covGZpgCLIB/w408-h229-k-no/",
		"address": "Số 343/20 Tống Văn Trân, phường 5, quận 11, thành phố Hồ Chí Minh, phường 3, Hồ Chí Minh, Vietnam",
		"phone": "+84 8 3975 6933"
	},
	{
		"name":"Petrolimex Petrol Store No.48",
		"lat":10.7849765,
		"lon":106.6211557,
		"image": "https://maps.gstatic.com/tactile/pane/default_geocode-1x.png",
		"address": "960, Huynh Tan Phat Street, Tan Thuan Dong Ward, District 7, Tân Thuận Đông, Quận 7, Hồ Chí Minh, Vietnam",
		"phone": "+84 8 3873 3428"
	},
	{
		"name":"Cây xăng Thị Nghè",
		"lat":10.7849765,
		"lon":106.6211557,
		"image":"https://lh3.googleusercontent.com/-CwAjr-90uak/VsW03eHJWVI/AAAAAAAALsE/nX1KIX2oC3UqoUmp43B0UA-Gt2-WyWTKwCJkC/w408-h229-k-no/",
		"address": "160 Xô Viết Nghệ Tĩnh, phường 21, Bình Thạnh, Hồ Chí Minh, Vietnam",
		"phone": "+84 8 3899 3554"
	},
	{
		"name":"Trạm Xăng Dầu Số 4",
		"lat":10.7849765,
		"lon":106.6561747,
		"image":"https://lh4.googleusercontent.com/-biuB248TK7I/V_7jipfVbCI/AAAAAAABh5c/UOie95Psrswdx8Zp8wbW9GU3wTDXiA0JQCLIB/w408-h544-k-no/",
		"address": "167 Điện Biên Phủ, 15, Bình Thạnh, Hồ Chí Minh, Vietnam",
		"phone": "+84 8 3899 9221"
	},
	{
		"name":"PVOIL CHXD 55",
		"lat":10.7644767,
		"lon":106.6719932,
		"image":"https://lh3.googleusercontent.com/-3bWK2hpIHsU/WLPGZg_UqEI/AAAAAAAAAB8/xpCxSQUEY5E6bhMs3mW4dqq70MP_i29SQCLIB/w408-h229-k-no/",
		"address": "Số 500 Nguyễn Đình Chiểu , phường 4, quận 3, thành phố Hồ Chí Minh, phường 4, Hồ Chí Minh, Vietnam",
		"phone": "+84 8 3929 0948"
	}
]
